{
"type": "FeatureCollection",
"crs": { "type": "name", "properties": { "name": "urn:ogc:def:crs:OGC:1.3:CRS84" } },
"features": [
{ "type": "Feature", "properties": { "Name": "Columbia University", "Address": "New York, NY 10027, USA", "City": "New York", "LAT": 40.8075355, "LON": -73.9625727, "Rank": "16", "Students": 26586, "std_staff": 5.8, "Inter_std": 0.37, "Inter_stdNo": 9836.82 }, "geometry": { "type": "Point", "coordinates": [ -73.9625727, 40.8075355 ] } },
{ "type": "Feature", "properties": { "Name": "New York University", "Address": "New York, NY 10003, USA", "City": "New York", "LAT": 40.7295134, "LON": -73.9964609, "Rank": "29", "Students": 44466, "std_staff": 8.9, "Inter_std": 0.33, "Inter_stdNo": 14673.78 }, "geometry": { "type": "Point", "coordinates": [ -73.9964609, 40.7295134 ] } },
{ "type": "Feature", "properties": { "Name": "Stevens Institute of Technology", "Address": "1 Castle Point on Hudson, Hoboken, New Jersey, 07030, United States", "City": "New York", "LAT": 40.745083, "LON": -74.024675, "Rank": "600-801", "Students": 5943, "std_staff": 16.7, "Inter_std": 0.38, "Inter_stdNo": 2258.34 }, "geometry": { "type": "Point", "coordinates": [ -74.024675, 40.745083 ] } },
{ "type": "Feature", "properties": { "Name": "The New School", "Address": "63 5th Ave, New York, NY 10003, United States", "City": "New York", "LAT": 40.735512, "LON": -73.99354, "Rank": "801-1000", "Students": 10434, "std_staff": 9.4, "Inter_std": 0.35, "Inter_stdNo": 3651.9 }, "geometry": { "type": "Point", "coordinates": [ -73.99354, 40.735512 ] } },
{ "type": "Feature", "properties": { "Name": "Imperial College London", "Address": "South Kensington, London SW7 2BU, UK", "City": "London", "LAT": 51.4987997, "LON": -0.1748772, "Rank": "10", "Students": 16760, "std_staff": 11.7, "Inter_std": 0.56, "Inter_stdNo": 9385.6 }, "geometry": { "type": "Point", "coordinates": [ -0.1748772, 51.4987997 ] } },
{ "type": "Feature", "properties": { "Name": "UCL", "Address": "Gower St, Bloomsbury, London WC1E 6BT, UK", "City": "London", "LAT": 51.5245592, "LON": -0.1340401, "Rank": "15", "Students": 32665, "std_staff": 10.6, "Inter_std": 0.52, "Inter_stdNo": 16985.8 }, "geometry": { "type": "Point", "coordinates": [ -0.1340401, 51.5245592 ] } },
{ "type": "Feature", "properties": { "Name": "London School of Economics and Political Science", "Address": "Houghton St, Holborn, London WC2A 2AE, UK", "City": "London", "LAT": 51.5144388, "LON": -0.1164513, "Rank": "27", "Students": 10570, "std_staff": 12.1, "Inter_std": 0.71, "Inter_stdNo": 7504.7 }, "geometry": { "type": "Point", "coordinates": [ -0.1164513, 51.5144388 ] } },
{ "type": "Feature", "properties": { "Name": "King’s College London", "Address": "Strand, London WC2R 2LS, UK", "City": "London", "LAT": 51.5114864, "LON": -0.115997, "Rank": "36", "Students": 26057, "std_staff": 12.5, "Inter_std": 0.44, "Inter_stdNo": 11465.08 }, "geometry": { "type": "Point", "coordinates": [ -0.115997, 51.5114864 ] } },
{ "type": "Feature", "properties": { "Name": "Queen Mary University of London", "Address": "Mile End Rd, Bethnal Green, London E1 4NS, UK", "City": "London", "LAT": 51.5240671, "LON": -0.0403745, "Rank": "110", "Students": 17799, "std_staff": 14.1, "Inter_std": 0.43, "Inter_stdNo": 7653.57 }, "geometry": { "type": "Point", "coordinates": [ -0.0403745, 51.5240671 ] } },
{ "type": "Feature", "properties": { "Name": "St George’s, University of London", "Address": "Cranmer Terrace, Tooting, London SW17 0RE, UK", "City": "London", "LAT": 51.427401, "LON": -0.1749356, "Rank": "201–250", "Students": 3226, "std_staff": 14.7, "Inter_std": 0.21, "Inter_stdNo": 677.46 }, "geometry": { "type": "Point", "coordinates": [ -0.1749356, 51.427401 ] } },
{ "type": "Feature", "properties": { "Name": "Birkbeck, University of London", "Address": "Malet St, Bloomsbury, London WC1E 7HX, UK", "City": "London", "LAT": 51.5219696, "LON": -0.1300479, "Rank": "351–400", "Students": 8631, "std_staff": 15.8, "Inter_std": 0.38, "Inter_stdNo": 3279.78 }, "geometry": { "type": "Point", "coordinates": [ -0.1300479, 51.5219696 ] } },
{ "type": "Feature", "properties": { "Name": "Goldsmiths, University of London", "Address": "8 Lewisham Way, New Cross, London SE14 6NW, UK", "City": "London", "LAT": 51.474271, "LON": -0.035408, "Rank": "351–400", "Students": 8486, "std_staff": 15.3, "Inter_std": 0.35, "Inter_stdNo": 2970.1 }, "geometry": { "type": "Point", "coordinates": [ -0.035408, 51.474271 ] } },
{ "type": "Feature", "properties": { "Name": "City, University of London", "Address": "Northampton Square, Clerkenwell, London EC1V 0HB, UK", "City": "London", "LAT": 51.5279719, "LON": -0.1024624, "Rank": "401–500", "Students": 14362, "std_staff": 18.5, "Inter_std": 0.51, "Inter_stdNo": 7324.62 }, "geometry": { "type": "Point", "coordinates": [ -0.1024624, 51.5279719 ] } },
{ "type": "Feature", "properties": { "Name": "Royal Veterinary College", "Address": "4 Royal College St, London NW1 0TU, UK", "City": "London", "LAT": 51.5366976, "LON": -0.1339696, "Rank": "401–500", "Students": 2067, "std_staff": 10.9, "Inter_std": 0.19, "Inter_stdNo": 392.73 }, "geometry": { "type": "Point", "coordinates": [ -0.1339696, 51.5366976 ] } },
{ "type": "Feature", "properties": { "Name": "SOAS University of London", "Address": "10 Thornhaugh St, Bloomsbury, London WC1H 0XG, UK", "City": "London", "LAT": 51.52235, "LON": -0.129259, "Rank": "401–500", "Students": 5194, "std_staff": 12.1, "Inter_std": 0.53, "Inter_stdNo": 2752.82 }, "geometry": { "type": "Point", "coordinates": [ -0.129259, 51.52235 ] } },
{ "type": "Feature", "properties": { "Name": "University of Greenwich", "Address": "10 Stockwell St, Greenwich Peninsula, London SE10 9BD, United Kingdom", "City": "London", "LAT": 51.48259, "LON": -0.005822, "Rank": "601-800", "Students": 14477, "std_staff": 18.0, "Inter_std": 0.36, "Inter_stdNo": 5211.72 }, "geometry": { "type": "Point", "coordinates": [ -0.005822, 51.48259 ] } },
{ "type": "Feature", "properties": { "Name": "University of Westminster", "Address": "309 Regent St, Marylebone, London W1B 2HW, United Kingdom", "City": "London", "LAT": 51.516864, "LON": -0.143228, "Rank": "601-800", "Students": 16401, "std_staff": 17.4, "Inter_std": 0.46, "Inter_stdNo": 7544.46 }, "geometry": { "type": "Point", "coordinates": [ -0.143228, 51.516864 ] } },
{ "type": "Feature", "properties": { "Name": "The University of Tokyo", "Address": "7-chōme-3-1 Hongō, Bunkyo City, Tōkyō-to 113-8654, Japan", "City": "Tokyo", "LAT": 35.7126775, "LON": 139.761989, "Rank": "36", "Students": 25913, "std_staff": 10.6, "Inter_std": 0.12, "Inter_stdNo": 3109.56 }, "geometry": { "type": "Point", "coordinates": [ 139.761989, 35.7126775 ] } },
{ "type": "Feature", "properties": { "Name": "Tokyo Institute of Technology", "Address": "2 Chome-12-1 Ookayama, Meguro City, Tōkyō-to 152-8550, Japan", "City": "Tokyo", "LAT": 35.6051229, "LON": 139.6835302, "Rank": "251–300", "Students": 9752, "std_staff": 7.7, "Inter_std": 0.13, "Inter_stdNo": 1267.76 }, "geometry": { "type": "Point", "coordinates": [ 139.6835302, 35.6051229 ] } },
{ "type": "Feature", "properties": { "Name": "Teikyo University", "Address": "2-chōme-11-1 Kaga, Itabashi City, Tōkyō-to 173-8605, Japan", "City": "Tokyo", "LAT": 35.7594286, "LON": 139.7144745, "Rank": "401–500", "Students": 22873, "std_staff": 16.7, "Inter_std": 0.02, "Inter_stdNo": 457.46 }, "geometry": { "type": "Point", "coordinates": [ 139.7144745, 35.7594286 ] } },
{ "type": "Feature", "properties": { "Name": "Tokyo Medical and Dental University (TMDU)", "Address": "1-chōme-5-45 Yushima, Bunkyo City, Tōkyō-to 113-8510, Japan", "City": "Tokyo", "LAT": 35.7014781, "LON": 139.7642268, "Rank": "401–500", "Students": 2999, "std_staff": 3.3, "Inter_std": 0.09, "Inter_stdNo": 269.91 }, "geometry": { "type": "Point", "coordinates": [ 139.764226799999989, 35.7014781 ] } },
{ "type": "Feature", "properties": { "Name": "Jikei University School of Medicine", "Address": "3-25-8, Nishi-Shimbashi, Minato-ku, Tokyo, 105-8461, Japan", "City": "Tokyo", "LAT": 35.662989, "LON": 139.750735, "Rank": "601-800", "Students": 1090, "std_staff": 0.9, "Inter_std": 0.002, "Inter_stdNo": 2.18 }, "geometry": { "type": "Point", "coordinates": [ 139.750735, 35.662989 ] } },
{ "type": "Feature", "properties": { "Name": "Keio University", "Address": "2 Chome-15-45 Mita, Minato City, Tokyo 108-8345", "City": "Tokyo", "LAT": 35.64904, "LON": 139.743071, "Rank": "601-800", "Students": 33146, "std_staff": 9.4, "Inter_std": 0.091, "Inter_stdNo": 3016.286 }, "geometry": { "type": "Point", "coordinates": [ 139.743071, 35.64904 ] } },
{ "type": "Feature", "properties": { "Name": "Nippon Medical School", "Address": "1-1-5 Sendagi, Bunkyo-ku, Tokyo, 113-8602, Japan", "City": "Tokyo", "LAT": 35.721018, "LON": 139.758949, "Rank": "601-800", "Students": 704, "std_staff": 0.7, "Inter_std": 0.013, "Inter_stdNo": 9.152 }, "geometry": { "type": "Point", "coordinates": [ 139.758949, 35.721018 ] } },
{ "type": "Feature", "properties": { "Name": "Waseda University", "Address": "1-104 Totsukamachi, Shinjuku-ku, Tokyo, 169-8050, Japan", "City": "Tokyo", "LAT": 35.708791, "LON": 139.719794, "Rank": "601-800", "Students": 48271, "std_staff": 14.7, "Inter_std": 0.123, "Inter_stdNo": 5937.333 }, "geometry": { "type": "Point", "coordinates": [ 139.719794, 35.708791 ] } },
{ "type": "Feature", "properties": { "Name": "Juntendo University", "Address": "2-1-1 Hongo, Bunkyo-ku, Tokyo, 113-8421, Japan", "City": "Tokyo", "LAT": 35.702361, "LON": 139.761153, "Rank": "801-1000", "Students": 4953, "std_staff": 3.0, "Inter_std": 0.008, "Inter_stdNo": 39.624 }, "geometry": { "type": "Point", "coordinates": [ 139.761153, 35.702361 ] } },
{ "type": "Feature", "properties": { "Name": "Rikkyo University", "Address": "3 Chome-34-1 Nishiikebukuro, Toshima City, Tokyo 171-8501", "City": "Tokyo", "LAT": 35.730037, "LON": 139.702464, "Rank": "801-1000", "Students": 20041, "std_staff": 19.5, "Inter_std": 0.055, "Inter_stdNo": 1102.255 }, "geometry": { "type": "Point", "coordinates": [ 139.702464, 35.730037 ] } },
{ "type": "Feature", "properties": { "Name": "Tokyo Medical University", "Address": "6-1-1 Shinjuku, Shinjuku-ku, Tokyo, 160-8402, Japan", "City": "Tokyo", "LAT": 35.693568, "LON": 139.712348, "Rank": "801-1000", "Students": 1350, "std_staff": 1.6, "Inter_std": 0.01, "Inter_stdNo": 13.5 }, "geometry": { "type": "Point", "coordinates": [ 139.712348, 35.693568 ] } },
{ "type": "Feature", "properties": { "Name": "Tokyo University of Science", "Address": "1-3 Kagurazaka, Shinjuku-ku, Tokyo, 162-8601, Japan", "City": "Tokyo", "LAT": 35.699526, "LON": 139.741442, "Rank": "801-1000", "Students": 18291, "std_staff": 26.9, "Inter_std": 0.025, "Inter_stdNo": 457.275 }, "geometry": { "type": "Point", "coordinates": [ 139.741442, 35.699526 ] } }
]
}
